[{"id":"1","title":"Ing\u00c3\u00a9nieur en radiocommunications (H\/F)","url":"","date":"0000-00-00","town":"Maisons-Alfort","long":null,"lat":null,"type":"Temps plein","company":"\u003EAgence Nationale des Frequences","wage":"0","text":""},{"id":"2","title":"Juriste (H\/F)","url":"","date":"0000-00-00","town":"Maisons-Alfort","long":null,"lat":null,"type":"Temps plein","company":"\u003EAgence Nationale des Frequences","wage":"0","text":""},{"id":"3","title":"Administrateur syst\u00c3\u00a8me r\u00c3\u00a9seau (H\/F)","url":"","date":"0000-00-00","town":"Saint-Ouen","long":"2.12088","lat":"50.0382","type":"Temps plein","company":"\u003ECLASS","wage":"0","text":""},{"id":"4","title":"ANALYSTE PROGRAMMEUR  H\/F","url":"","date":"0000-00-00","town":"Guyancourt","long":null,"lat":null,"type":"Temps plein","company":"Array","wage":"0","text":""},{"id":"5","title":"Administrateur syst\u00c3\u00a8mes et r\u00c3\u00a9seaux (H\/F) - Paris","url":"","date":"0000-00-00","town":"Paris","long":"2.3486","lat":"48.8534","type":"Temps plein","company":"\u003ENEOVITY","wage":"0","text":""},{"id":"6","title":"EXPERT SYSTEMES \/ INGENIEUR TERRITORIAL (H\/F)","url":"","date":"0000-00-00","town":"Saint-Denis","long":"2.36667","lat":"48.9333","type":"Temps plein","company":"\u003EPLAINE COMMUNE","wage":"0","text":""},{"id":"7","title":"COORDINATEUR DE FORMATION EN LIGNE (classe virtuelle) (H\/F)","url":"","date":"0000-00-00","town":"Paris","long":"2.3486","lat":"48.8534","type":"Temps plein","company":"\u003EAF2A","wage":"0","text":""},{"id":"8","title":"INFORMATICIEN H\/F","url":"","date":"0000-00-00","town":"Sauveterre","long":"3.44116","lat":"44.408","type":"Temps plein","company":"\u003EOCTIME","wage":"30","text":""},{"id":"9","title":"Chef de projet Business Intelligence Junior (H\/F)","url":"","date":"0000-00-00","town":"Courbevoie","long":null,"lat":null,"type":"Temps plein","company":"\u003ECANON","wage":"0","text":""},{"id":"10","title":"Ing\u00c3\u00a9nieur Etudes et D\u00c3\u00a9veloppement .NET H\/F","url":"","date":"0000-00-00","town":"Melun","long":null,"lat":null,"type":"Temps plein","company":"\u003EElcimai","wage":"0","text":""},{"id":"11","title":"Charg\u00c3\u00a9 de production informatique (H\/F)","url":"","date":"0000-00-00","town":"Nogent","long":null,"lat":null,"type":"Temps plein","company":"\u003EViamedis","wage":"30","text":""},{"id":"12","title":"Developpeur Frontend\/Backend (H\/F)","url":"","date":"0000-00-00","town":"Toulouse","long":"1.44367","lat":"43.6043","type":"Temps plein","company":"\u003EMyFeelBack","wage":"0","text":""},{"id":"13","title":"Technicien(ne) Support Informatique bilingue fran\u00c3\u00a7ais\/anglais (H\/F)","url":"","date":"0000-00-00","town":"Colombes","long":null,"lat":null,"type":"Temps plein","company":"\u003EPROLIVAL","wage":"21","text":""},{"id":"14","title":"D\u00c3\u00a9velopeur Front End (H\/F)","url":"","date":"0000-00-00","town":"Paris","long":"2.3486","lat":"48.8534","type":"Temps plein","company":"\u003ECINQ-S","wage":"35","text":""},{"id":"15","title":"Ing\u00c3\u00a9nieur D\u00c3\u00a9veloppement  JAVA \/ J2EE \/ Sharepoint \/ C \/ C++  H\/F","url":"","date":"0000-00-00","town":"Toulouse","long":"1.44367","lat":"43.6043","type":"Temps plein","company":"\u003ECapgemini","wage":"0","text":""},{"id":"16","title":"Analyse, Conception, D\u00c3\u00a9veloppement H\/F","url":"","date":"0000-00-00","town":"Toulouse","long":"1.44367","lat":"43.6043","type":"Temps plein","company":"\u003ECapgemini","wage":"0","text":""},{"id":"17","title":"Consultant Fonctionnel SAP FI-CO (H\/F)","url":"","date":"0000-00-00","town":"Paris","long":"2.3486","lat":"48.8534","type":"Temps plein","company":"\u003EGroupe KPF","wage":"0","text":""},{"id":"18","title":"Informaticien(ne) de d\u00c3\u00a9veloppement (H\/F)","url":"","date":"0000-00-00","town":"Clichy","long":null,"lat":null,"type":"Temps plein","company":"\u003EBTP CONSULTANTS","wage":"27","text":""},{"id":"19","title":"Ing\u00c3\u00a9nieur Mobilit\u00c3\u00a9 \u00c3\u00a0 Nantes H\/F","url":"","date":"0000-00-00","town":"Nantes","long":null,"lat":null,"type":"Temps plein","company":"\u003ECapgemini","wage":"0","text":""},{"id":"20","title":"Ing\u00c3\u00a9nieur D\u00c3\u00a9veloppement C# h\/f - Editeur de logiciel- Paris","url":"","date":"0000-00-00","town":"Paris","long":"2.3486","lat":"48.8534","type":"Temps plein","company":"\u003ENEOVITY","wage":"0","text":""}]